[
    {"station": "Waterfront Station", "lat": 49.2859, "lon": -123.1117, "travel_time_min": 0},
    {"station": "Burrard Station", "lat": 49.2855, "lon": -123.1200, "travel_time_min": 2},
    {"station": "Granville Station", "lat": 49.2831, "lon": -123.1161, "travel_time_min": 3},
    {"station": "Stadium–Chinatown Station", "lat": 49.2796, "lon": -123.1097, "travel_time_min": 5},
    {"station": "Main Street–Science World Station", "lat": 49.2733, "lon": -123.0996, "travel_time_min": 7},
    {"station": "Commercial–Broadway Station", "lat": 49.2626, "lon": -123.0692, "travel_time_min": 10},
    {"station": "Nanaimo Station", "lat": 49.2483, "lon": -123.0559, "travel_time_min": 13},
    {"station": "29th Avenue Station", "lat": 49.2442, "lon": -123.0460, "travel_time_min": 15},
    {"station": "Joyce–Collingwood Station", "lat": 49.2384, "lon": -123.0318, "travel_time_min": 17},
    {"station": "Patterson Station", "lat": 49.2297, "lon": -123.0127, "travel_time_min": 19},
    {"station": "Metrotown Station", "lat": 49.2257, "lon": -123.0039, "travel_time_min": 21},
    {"station": "Royal Oak Station", "lat": 49.2200, "lon": -122.9884, "travel_time_min": 23},
    {"station": "Edmonds Station", "lat": 49.2138, "lon": -122.9591, "travel_time_min": 26},
    {"station": "22nd Street Station", "lat": 49.2000, "lon": -122.9490, "travel_time_min": 29},
    {"station": "New Westminster Station", "lat": 49.2014, "lon": -122.9107, "travel_time_min": 32},
    {"station": "Columbia Station", "lat": 49.2048, "lon": -122.9061, "travel_time_min": 34},
    {"station": "Sapperton Station", "lat": 49.2245, "lon": -122.8895, "travel_time_min": 37},
    {"station": "Braid Station", "lat": 49.2331, "lon": -122.8828, "travel_time_min": 39},
    {"station": "Lougheed Town Centre Station", "lat": 49.2485, "lon": -122.8970, "travel_time_min": 41},
    {"station": "Production Way–University Station", "lat": 49.2534, "lon": -122.9181, "travel_time_min": 43},
    {"station": "Scott Road Station", "lat": 49.2044, "lon": -122.8743, "travel_time_min": 38},
    {"station": "Gateway Station", "lat": 49.1990, "lon": -122.8507, "travel_time_min": 41},
    {"station": "Surrey Central Station", "lat": 49.1896, "lon": -122.8480, "travel_time_min": 43},
    {"station": "King George Station", "lat": 49.1827, "lon": -122.8452, "travel_time_min": 45},
    {"station": "VCC–Clark Station", "lat": 49.2658, "lon": -123.0867, "travel_time_min": 12},
    {"station": "Renfrew Station", "lat": 49.2589, "lon": -123.0454, "travel_time_min": 15},
    {"station": "Rupert Station", "lat": 49.2609, "lon": -123.0329, "travel_time_min": 17},
    {"station": "Gilmore Station", "lat": 49.2648, "lon": -123.0137, "travel_time_min": 19},
    {"station": "Brentwood Town Centre Station", "lat": 49.2664, "lon": -123.0016, "travel_time_min": 21},
    {"station": "Holdom Station", "lat": 49.2647, "lon": -122.9822, "travel_time_min": 23},
    {"station": "Sperling–Burnaby Lake Station", "lat": 49.2592, "lon": -122.9640, "travel_time_min": 26},
    {"station": "Lake City Way Station", "lat": 49.2546, "lon": -122.9392, "travel_time_min": 28},
    {"station": "Burquitlam Station", "lat": 49.2613, "lon": -122.8899, "travel_time_min": 45},
    {"station": "Moody Centre Station", "lat": 49.2780, "lon": -122.8460, "travel_time_min": 50},
    {"station": "Inlet Centre Station", "lat": 49.2772, "lon": -122.8282, "travel_time_min": 53},
    {"station": "Coquitlam Central Station", "lat": 49.2739, "lon": -122.7999, "travel_time_min": 56},
    {"station": "Lincoln Station", "lat": 49.2798, "lon": -122.7930, "travel_time_min": 58},
    {"station": "Lafarge Lake–Douglas Station", "lat": 49.2856, "lon": -122.7916, "travel_time_min": 60},
    {"station": "Vancouver City Centre Station", "lat": 49.2825, "lon": -123.1185, "travel_time_min": 2},
    {"station": "Yaletown–Roundhouse Station", "lat": 49.2745, "lon": -123.1219, "travel_time_min": 4},
    {"station": "Olympic Village Station", "lat": 49.2665, "lon": -123.1154, "travel_time_min": 6},
    {"station": "Broadway–City Hall Station", "lat": 49.2630, "lon": -123.1147, "travel_time_min": 8},
    {"station": "King Edward Station", "lat": 49.2492, "lon": -123.1158, "travel_time_min": 11},
    {"station": "Oakridge–41st Avenue Station", "lat": 49.2331, "lon": -123.1162, "travel_time_min": 14},
    {"station": "Langara–49th Avenue Station", "lat": 49.2263, "lon": -123.1161, "travel_time_min": 16},
    {"station": "Marine Drive Station", "lat": 49.2098, "lon": -123.1174, "travel_time_min": 19},
    {"station": "Bridgeport Station", "lat": 49.1924, "lon": -123.1262, "travel_time_min": 22},
    {"station": "Aberdeen Station", "lat": 49.1843, "lon": -123.1362, "travel_time_min": 25},
    {"station": "Lansdowne Station", "lat": 49.1747, "lon": -123.1362, "travel_time_min": 27},
    {"station": "Richmond–Brighouse Station", "lat": 49.1681, "lon": -123.1362, "travel_time_min": 29},
    {"station": "Templeton Station", "lat": 49.1967, "lon": -123.1462, "travel_time_min": 26},
    {"station": "Sea Island Centre Station", "lat": 49.1931, "lon": -123.1587, "travel_time_min": 28},
    {"station": "YVR–Airport Station", "lat": 49.1939, "lon": -123.1769, "travel_time_min": 30}
]